{"annotations": {"N": {"end": 450, "start": 0, "strand": 1}, "nuc": {"end": 450, "start": 0, "strand": 1}}, "author_info": {"Abbasi et al.,": {"journal": "Submitted (01-JUN-2011) Virology Dep, School of Public Health, Tehran University of Medical Sciences, Tehran, Iran", "n": 44, "title": "Direct Submission"}, "Abe et al.,": {"journal": "Unpublished", "n": 1, "title": "Measles virus"}, "Aberle et al.,": {"journal": "Unpublished", "n": 1, "title": "MeaNS - Measles Nucleotide Surveillance Program"}, "Adhikari et al.,": {"journal": "Unpublished", "n": 7, "title": "MeaNS - Measles Nucleotide Surveillance Program"}, "Akiyoshi et al.,": {"journal": "Unpublished", "n": 1, "title": "Measles virus strain Mvi/Kobe.JPN/17.11/110064[D4] nucleoprotein gene"}, "Al Busaidy et al.,": {"journal": "Unpublished", "n": 7, "title": "MeaNS - Measles Nucleotide Surveillance Program"}, "Al Jardani et al.,": {"journal": "Unpublished", "n": 1, "title": "MeaNS - Measles Nucleotide Surveillance Program"}, "Al Kindi et al.,": {"journal": "Unpublished", "n": 17, "title": "MeaNS - Measles Nucleotide Surveillance Program"}, "Al-Mahruqi et al.,": {"journal": "Unpublished", "n": 17, "title": "MeaNS - Measles Nucleotide Surveillance Program"}, "Alla et al.,": {"journal": "Unpublished", "n": 15, "title": "MeaNS - Measles Nucleotide Surveillance Program"}, "Anton et al.,": {"journal": "Unpublished", "n": 4, "title": "Measles Surveillance in Catalonia"}, "Barratt et al.,": {"journal": "Unpublished", "n": 2, "title": "MeaNS - Measles Nucleotide Surveillance Program"}, "Barrero et al.,": {"journal": "Unpublished", "n": 1, "title": "Measles virus imported case from Rome Italy March 2011"}, "Baykal et al.,": {"journal": "Unpublished", "n": 2, "title": "MeaNS - Measles Nucleotide Surveillance Program"}, "Beirnes et al.,": {"journal": "Unpublished", "n": 5, "title": "MeaNS - Measles Nucleotide Surveillance Program"}, "Benamar et al.,": {"journal": "Unpublished", "n": 5, "title": "MeaNS - Measles Nucleotide Surveillance Program"}, "Biswas et al.,": {"journal": "Unpublished", "n": 3, "title": "Measles genotype circulating in Arunachal Pradesh, India"}, "Brown et al.,": {"journal": "Unpublished", "n": 42, "title": "MeaNS - Measles Nucleotide Surveillance Program"}, "Brytting et al.,": {"journal": "Submitted (21-JUN-2010) Department of Virology, Swedish Institute for Infectious Disease Control, Nobelsvag 18, Solna 171 82, Sweden", "n": 1, "title": "Direct Submission"}, "Carr et al.,": {"journal": "Unpublished", "n": 7, "title": "MeaNS - Measles Nucleotide Surveillance Program"}, "Castellanos et al.,": {"journal": "Unpublished", "n": 1, "title": "MeaNS - Measles Nucleotide Surveillance Program"}, "Charpentier et al.,": {"journal": "Unpublished", "n": 1, "title": "MeaNS - Measles Nucleotide Surveillance Program"}, "Cheng et al.,": {"journal": "J. Med. Virol. 85 (6), 1095-1099 (2013)", "n": 2, "title": "Molecular epidemiology of measles virus in Taiwan in 2010-2011: The common genotype changed from H1 to D9 and the first appearance of D4"}, "Chironna et al.,": {"journal": "Unpublished", "n": 1, "title": "Measles cases in Puglia, Southern Italy, 2010"}, "Cilla et al.,": {"journal": "Euro Surveill. 16, 43 (2011)", "n": 4, "title": "Measles genotypes D4 and G3 reintroduced by multiple foci after 15 years without measles virus circulation, Gipuzkoa, Basque Country, Spain, Spring 2011"}, "Cordey et al.,": {"journal": "Unpublished", "n": 4, "title": "MeaNS - Measles Nucleotide Surveillance Program"}, "Cruz-Ramirez et al.,": {"journal": "Unpublished", "n": 3, "title": "Measles virus genotyping in Mexico"}, "Cvetkova et al.,": {"journal": "Unpublished", "n": 2, "title": "MeaNS - Measles Nucleotide Surveillance Program"}, "D'Agaro et al.,": {"journal": "Epidemiol. Infect. (2011) In press", "n": 10, "title": "Epidemiological and molecular assessment of a measles outbreak in a highly vaccinated population of northeast Italy"}, "Dallaire et al.,": {"journal": "Unpublished", "n": 6, "title": "Long Lasting Measles Outbreak Affecting Several Unrelated Networks of Unvaccinated Persons"}, "Dhole et al.,": {"journal": "Unpublished", "n": 3, "title": "MeaNS - Measles Nucleotide Surveillance Program"}, "Dina et al.,": {"journal": "Unpublished", "n": 75, "title": "MeaNS - Measles Nucleotide Surveillance Program"}, "Espinosa et al.,": {"journal": "Submitted (20-APR-2017) Viral and Rickettsial Disease Laboratory, California Department of Public Health, 850 Marina Bay Parkway, Richmond, CA 94804, USA", "n": 2, "title": "Direct Submission"}, "Fernandez et al.,": {"journal": "Submitted (12-MAY-2011) Departamento Laboratorio Biomedico Nacional y de Referencia, Instituto de Salud Publica de Chile, Marathon 1000 Nunoa, Santiago, Region Metropolitana, Chile", "n": 4, "title": "Direct Submission"}, "Fernandez-Garcia et al.,": {"journal": "Unpublished", "n": 1, "title": "Measles virus genotype D4 strains with non-standard genome lengths circulated during the large outbreaks in Spain in 2011-2012"}, "Flaieh et al.,": {"journal": "Unpublished", "n": 16, "title": "MeaNS - Measles Nucleotide Surveillance Program"}, "Franchin et al.,": {"journal": "Unpublished", "n": 12, "title": "Measles virus in Veneto region, Italy"}, "Freymuth et al.,": {"journal": "Unpublished", "n": 26, "title": "Measles strains National Reference Center (Caen-France)"}, "Gil et al.,": {"journal": "Unpublished", "n": 12, "title": "Measles virus genotype D4 strains with non-standard genome lengths circulated during the large outbreaks in Spain in 2011-2012"}, "Giria et al.,": {"journal": "Euro Surveill. 13 (42) (2008) In press", "n": 1, "title": "Report on the measles situation in Portugal"}, "Guerra Guerra et al.,": {"journal": "Unpublished", "n": 4, "title": "Description of an outbreak of imported measles in Panama, May 2011"}, "Hasegawa et al.,": {"journal": "Ann. Rep. Tokyo Metr. Inst. Pub. Health 62, 71-78 (2011)", "n": 47, "title": "Measles Epidemic in Tokyo(2011)"}, "Hiebert et al.,": {"journal": "Unpublished", "n": 126, "title": "MeaNS - Measles Nucleotide Surveillance Program"}, "Hillaire et al.,": {"journal": "Unpublished", "n": 1, "title": "Measles surveillance in The Netherlands (WHO National Reference Laboratories for Measles and Rubella: National Institute of Public Health and the Environment, Bilthoven, The Netherlands; and Department of Virology, Erasmus MC, Rotterdam, The Netherlands)"}, "Hutse et al.,": {"journal": "Unpublished", "n": 128, "title": "MeaNS - Measles Nucleotide Surveillance Program"}, "Itamochi et al.,": {"journal": "Unpublished", "n": 1, "title": "Measles virus detected in Toyama, Japan in 2012"}, "Ivancic-Jelecki et al.,": {"journal": "Infect. Genet. Evol. 17C, 71-78 (2013)", "n": 2, "title": "The first genetic characterization of a D4 measles virus strain derived from a patient with subacute sclerosing panencephalitis"}, "Jadi et al.,": {"journal": "Unpublished", "n": 6, "title": "Measles virus genotypes circulating in Pune, India"}, "Jayamaha et al.,": {"journal": "J. Clin. Virol. 54 (2), 168-173 (2012)", "n": 1, "title": "Laboratory diagnosis, molecular characteristics, epidemiological and clinical features of an outbreak of measles in a low incidence population in Australia"}, "Kaida et al.,": {"journal": "Unpublished", "n": 1, "title": "Detection of Measles virus genotype D4 from a adult male in Japan"}, "Kalaycioglu et al.,": {"journal": "Unpublished", "n": 4, "title": "MeaNS - Measles Nucleotide Surveillance Program"}, "Kasuga et al.,": {"journal": "Unpublished", "n": 1, "title": "Detection of measles virus in Tokyo, Japan"}, "Kessler et al.,": {"journal": "Unpublished", "n": 6, "title": "Defective interfering RNA modulates the ability of Measles virus wild type strains to interfere with the early immune response"}, "Kikuchi et al.,": {"journal": "Unpublished", "n": 1, "title": "Molecular characterization of measles virus detected in Sapporo in 2010"}, "Kirkness et al.,": {"journal": "Submitted (30-AUG-2011) J. Craig Venter Institute, 9704 Medical Center Drive, Rockville, MD 20850, USA", "n": 2, "title": "Direct Submission"}, "Korukluoglu et al.,": {"journal": "Unpublished", "n": 3, "title": "Sequence of Measles Viruses of Imported Cases, Turkey"}, "Kremer et al.,": {"journal": "Unpublished", "n": 21, "title": "MeaNS - Measles Nucleotide Surveillance Program"}, "Krishnaswamy et al.,": {"journal": "Unpublished", "n": 6, "title": "MeaNS - Measles Nucleotide Surveillance Program"}, "Kurata et al.,": {"journal": "Unpublished", "n": 2, "title": "measles virus detected in Osaka"}, "Kuttiatt et al.,": {"journal": "Unpublished", "n": 1, "title": "Molecular characterization of Measles virus strains circulating in Kerala"}, "Lakhani et al.,": {"journal": "Unpublished", "n": 8, "title": "Measles virus genotypes circulating in Gujarat, India"}, "Lazar et al.,": {"journal": "Unpublished", "n": 32, "title": "MeaNS - Measles Nucleotide Surveillance Program"}, "Lemos et al.,": {"journal": "Unpublished", "n": 24, "title": "Genetic characterization of Measles virus detected in 2011 in brazil"}, "Magurano et al.,": {"journal": "Unpublished", "n": 115, "title": "Molecular epidemiology of Measles virus in Italy during 2010"}, "McMahon et al.,": {"journal": "Unpublished", "n": 1, "title": "MeaNS - Measles Nucleotide Surveillance Program"}, "Melidou et al.,": {"journal": "Unpublished", "n": 2, "title": "Greek measles epidemic strain, 2010"}, "Mendoza et al.,": {"journal": "Unpublished", "n": 2, "title": "Measles genotype surveillance in Canada"}, "Mokhtari Azad et al.,": {"journal": "Unpublished", "n": 18, "title": "MVs/Qeshm.IRN/12.13/1"}, "Mosquera et al.,": {"journal": "Unpublished", "n": 23, "title": "MeaNS - Measles Nucleotide Surveillance Program"}, "Munoz-Alia et al.,": {"journal": "Unpublished", "n": 2, "title": "Antigenic Drift Defines a New D4 Subgenotype of Measles Virus (JVI00209-17)"}, "Mura et al.,": {"journal": "J. Virol. (2017) In press", "n": 1, "title": "Non-encapsidated 5' copy-back defective-interfering genomes produced by recombinant measles viruses are recognized by RIG-I and LGP2 but not MDA5"}, "Muscat et al.,": {"journal": "Vaccine 25 (33), 6232-6236 (2007)", "n": 5, "title": "The benefit of molecular characterization during a measles upsurge in Denmark"}, "Myers et al.,": {"journal": "Unpublished", "n": 1, "title": "MeaNS - Measles Nucleotide Surveillance Program"}, "Necula et al.,": {"journal": "Unpublished", "n": 30, "title": "MeaNS - Measles Nucleotide Surveillance Program"}, "Nedeljkovic et al.,": {"journal": "Unpublished", "n": 6, "title": "An outbreak of measles in Serbia between December 2010 and August 2011 after several years with low incidence highlighted the need for supplementary immunization activities despite an overall high routine childhood immunization coverage"}, "Northill et al.,": {"journal": "Unpublished", "n": 1, "title": "MeaNS - Measles Nucleotide Surveillance Program"}, "Ogawa et al.,": {"journal": "Unpublished", "n": 1, "title": "Measles virus genotype D4 gene for nucleoprotein, partial cds, strain: Mvs/Chiba.JPN/06.12/3"}, "Oonuma et al.,": {"journal": "Unpublished", "n": 1, "title": "Measles N gene sequence in 2011"}, "Palminha et al.,": {"journal": "Unpublished", "n": 3, "title": "MeaNS - Measles Nucleotide Surveillance Program"}, "Penedos et al.,": {"journal": "PLoS ONE 10 (11), E0143081 (2015)", "n": 5, "title": "Assessment of the Utility of Whole Genome Sequencing of Measles Virus in the Characterisation of Outbreaks"}, "Phan et al.,": {"journal": "Unpublished", "n": 1, "title": "Complete genome sequences of six measles virus strains"}, "Pogka et al.,": {"journal": "Submitted (10-AUG-2011) Measles and Rubella Reference Laboratory, Hellenic Pasteur Institute, Vas. Sofias Ave., Athens 11521, Greece", "n": 27, "title": "Direct Submission"}, "Preston et al.,": {"journal": "Unpublished", "n": 1, "title": "Measles surveillance in Canada"}, "Prosenc et al.,": {"journal": "Unpublished", "n": 2, "title": "MeaNS - Measles Nucleotide Surveillance Program"}, "Ratnamohan et al.,": {"journal": "Unpublished", "n": 3, "title": "Measles outbreak in Sydney, March to June 2006"}, "Raut et al.,": {"journal": "Unpublished", "n": 8, "title": "MeaNS - Measles Nucleotide Surveillance Program"}, "Rivailler et al.,": {"journal": "Unpublished", "n": 14, "title": "MeaNS - Measles Nucleotide Surveillance Program"}, "Rota et al.,": {"journal": "Unpublished", "n": 73, "title": "MeaNS - Measles Nucleotide Surveillance Program"}, "Salimi et al.,": {"journal": "Submitted (28-JUL-2010) Virology Dept., School of Public Health, Tehran University of Medical Sciences, Tehran, Iran", "n": 44, "title": "Direct Submission"}, "Santibanez et al.,": {"journal": "Unpublished", "n": 116, "title": "MeaNS - Measles Nucleotide Surveillance Program"}, "Santon et al.,": {"journal": "Unpublished", "n": 5, "title": "Measles surveillance in Friuli-Venezia Giulia Region (North Eastern Italy) 2005-2015"}, "Shulga et al.,": {"journal": "Unpublished", "n": 7, "title": "Genotypes of measles virus in Russia and some NIS countries, 2007 - 2009"}, "Simin et al.,": {"journal": "Submitted (28-JUL-2010) Virology Dept., School of Public Health, Tehran University of Medical Sciences, Tehran, Iran", "n": 1, "title": "Direct Submission"}, "Siqueira et al.,": {"journal": "Unpublished", "n": 15, "title": "Genetic characterization of Measles virus detected in 2011 in Brazil"}, "Smit et al.,": {"journal": "Unpublished", "n": 1, "title": "MeaNS - Measles Nucleotide Surveillance Program"}, "Szomor et al.,": {"journal": "Unpublished", "n": 2, "title": "MeaNS - Measles Nucleotide Surveillance Program"}, "Tian et al.,": {"journal": "Unpublished", "n": 23, "title": "MeaNS - Measles Nucleotide Surveillance Program"}, "Tramuto et al.,": {"journal": "Unpublished", "n": 1, "title": "Measles epidemiology in Sicily"}, "Tran et al.,": {"journal": "Unpublished", "n": 8, "title": "MeaNS - Measles Nucleotide Surveillance Program"}, "Umair et al.,": {"journal": "Unpublished", "n": 2, "title": "Unpblished"}, "Vaidya et al.,": {"journal": "Unpublished", "n": 56, "title": "Genotyping of measles virus strains circulating in India"}, "Vainio et al.,": {"journal": "Unpublished", "n": 4, "title": "MeaNS - Measles Nucleotide Surveillance Program"}, "Wairagkar et al.,": {"journal": "Unpublished", "n": 4, "title": "Measles genotypes circulating in Arunachal Pradesh, India"}, "Waku-Kouomou et al.,": {"journal": "J. Med. Virol. 82 (6), 1033-1043 (2010)", "n": 9, "title": "Co-circulation of multiple measles virus genotypes during an epidemic in France in 2008"}, "Wiman et al.,": {"journal": "Unpublished", "n": 12, "title": "MeaNS - Measles Nucleotide Surveillance Program"}, "Yergolkar et al.,": {"journal": "Unpublished", "n": 5, "title": "Measles virus genotypes circulating in Karnataka and Kerala states of India"}, "Zaidi et al.,": {"journal": "Unpublished", "n": 53, "title": "Measles Virus in Pakistan 2013"}, "Zhang et al.,": {"journal": "Clin. Microbiol. Infect. (2014) In press", "n": 1, "title": "Monitoring progress toward measles elimination by genetic diversity analysis of measles viruses in China 2009-2010"}, "van den Hoek et al.,": {"journal": "Euro Surveill. 16 (48) (2011)", "n": 6, "title": "Two cases of mild IgM-negative measles in previously vaccinated adults, the Netherlands, April and July 2011"}}, "color_options": {"authors": {"key": "authors", "legendTitle": "Authors", "menuItem": "authors", "type": "discrete"}, "gt": {"key": "genotype", "legendTitle": "Genotype", "menuItem": "genotype", "type": "discrete"}, "num_date": {"key": "num_date", "legendTitle": "Sampling date", "menuItem": "date", "type": "continuous"}, "region": {"color_map": [["africa", "#CEB541"], ["europe", "#E39B39"], ["south_america", "#E56C2F"], ["north_america", "#DC2F24"], ["australia", "#4A8CC2"], ["asia", "#511EA8"]], "key": "region", "legendTitle": "region", "menuItem": "region"}, "subtype": {"key": "subtype", "legendTitle": "Subtype", "menuItem": "Subtype", "type": "discrete"}}, "defaults": {"mapTriplicate": true}, "filters": ["country", "region", "subtype", "authors"], "geo": {"country": {"afghanistan": {"latitude": 33.0, "longitude": 66.0}, "albania": {"latitude": 41.0, "longitude": 20.0}, "argentina": {"latitude": -34.0, "longitude": -64.0}, "australia": {"latitude": -24.7761085, "longitude": 134.755}, "austria": {"latitude": 47.2000338, "longitude": 13.199959}, "belgium": {"latitude": 50.6407351, "longitude": 4.66696}, "brazil": {"latitude": -10.3333332, "longitude": -53.1999999}, "bulgaria": {"latitude": 42.6073975, "longitude": 25.4856617}, "canada": {"latitude": 61.0666922, "longitude": -107.991707}, "chile": {"latitude": -31.7613364, "longitude": -71.3187696}, "china": {"latitude": 35.000074, "longitude": 104.999927}, "colombia": {"latitude": 2.893108, "longitude": -73.7845142}, "croatia": {"latitude": 45.16667, "longitude": 15.5}, "czech_republic": {"latitude": 49.8175, "longitude": 15.473}, "denmark": {"latitude": 56.0, "longitude": 10.0}, "ecuador": {"latitude": -1.3397667, "longitude": -79.3666964}, "france": {"latitude": 46.603354, "longitude": 1.8883335}, "germany": {"latitude": 51.0834196, "longitude": 10.4234469}, "greece": {"latitude": 39.0, "longitude": 22.0}, "hungary": {"latitude": 47.0, "longitude": 20.0}, "india": {"latitude": 22.3511148, "longitude": 78.6677428}, "iran": {"latitude": 32.0, "longitude": 53.0}, "iraq": {"latitude": 33.0, "longitude": 44.0}, "ireland": {"latitude": 52.865196, "longitude": -7.9794598}, "italy": {"latitude": 42.6384261, "longitude": 12.674297}, "japan": {"latitude": 35.68536, "longitude": 139.75309}, "kyrgyzstan": {"latitude": 41.5, "longitude": 75.0}, "latvia": {"latitude": 57.0, "longitude": 25.0}, "luxembourg": {"latitude": 49.61167, "longitude": 6.13}, "macedonia": {"latitude": 41.66667, "longitude": 21.75}, "mexico": {"latitude": 19.4325301, "longitude": -99.1332101}, "morocco": {"latitude": 31.1728192, "longitude": -7.3366042}, "nepal": {"latitude": 28.0, "longitude": 84.0}, "netherlands": {"latitude": 52.3702, "longitude": 4.8952}, "new_zealand": {"latitude": -41.500083, "longitude": 172.8344077}, "norway": {"latitude": 64.574131, "longitude": 11.5270102892}, "oman": {"latitude": 21.0000287, "longitude": 57.0036901}, "pakistan": {"latitude": 30.0, "longitude": 70.0}, "panama": {"latitude": 8.3096067, "longitude": -81.3066245}, "poland": {"latitude": 52.0977181, "longitude": 19.0258159}, "portugal": {"latitude": 39.6945, "longitude": -8.13057}, "romania": {"latitude": 46.0, "longitude": 25.0}, "russia": {"latitude": 64.6863136, "longitude": 97.7453061}, "serbia": {"latitude": 44.1534121, "longitude": 20.55144}, "slovenia": {"latitude": 45.8133113, "longitude": 14.4808369}, "south_africa": {"latitude": -28.8166235, "longitude": 24.991639}, "spain": {"latitude": 40.0028028, "longitude": -4.0031039}, "sweden": {"latitude": 59.6749712, "longitude": 14.5208584}, "switzerland": {"latitude": 47.00016, "longitude": 8.01427}, "taiwan": {"latitude": 23.6978, "longitude": 120.9605}, "turkey": {"latitude": 39.0, "longitude": 35.0}, "united_kingdom": {"latitude": 54.542713, "longitude": -2.384858}, "usa": {"latitude": 39.7837304, "longitude": -100.4458824}}, "region": {"africa": {"latitude": 4.070194, "longitude": 21.824559}, "europe": {"latitude": 49.646237, "longitude": 10.799454}, "north_america": {"latitude": 28.2367447, "longitude": -97.738017}, "south_america": {"latitude": -13.083583, "longitude": -58.470721}}}, "maintainer": ["Trevor Bedford, Eduan Wilkinson, Richard Neher", "http://bedford.io/team/trevor-bedford/"], "panels": ["tree", "map", "entropy"], "title": "Real-time tracking of measles virus evolution", "updated": "10 Jul 2019", "virus_count": 1310}