{"annotations": {"C": {"end": 2389, "start": 1828, "strand": 1}, "F": {"end": 7110, "start": 5457, "strand": 1}, "H": {"end": 9124, "start": 7270, "strand": 1}, "L": {"end": 15785, "start": 9233, "strand": 1}, "M": {"end": 4445, "start": 3437, "strand": 1}, "N": {"end": 1685, "start": 107, "strand": 1}, "P": {"end": 3330, "start": 1806, "strand": 1}, "V": {"end": 2705, "start": 1806, "strand": 1}, "nuc": {"end": 15894, "start": 0, "strand": 1}}, "author_info": {"Dina et al., ": {"journal": "Unpublished", "n": 1, "title": "Complete genome characterization of a wild-type measles virus isolated from a healthcare worker during a 2016 outbreak in a refugee settlement in France"}, "Dong et al., ": {"journal": "Virus Genes 39 (3), 330-334 (2009)", "n": 2, "title": "Adaptation of wild-type measles virus to cotton rat lung cells: E89K mutation in matrix protein contributes to its fitness"}, "Espinosa et al., ": {"journal": "Submitted (20-APR-2017) Viral and Rickettsial Disease Laboratory, California Department of Public Health, 850 Marina Bay Parkway, Richmond, CA 94804, USA", "n": 6, "title": "Direct Submission"}, "Franchin et al., ": {"journal": "Unpublished", "n": 3, "title": "Measles virus in Veneto region, Italy"}, "Gardy et al., ": {"journal": "J. Infect. Dis. (2015) In press", "n": 2, "title": "Whole-Genome Sequencing of Measles Virus Genotypes H1 and D8 During Outbreaks of Infection Following the 2010 Olympic Winter Games Reveals Viral Transmission Routes"}, "Huang et al., ": {"journal": "Unpublished", "n": 1, "title": "Illumina sequencing of clinical samples for virus detection in a public health laboratory: a feasibility study"}, "Jin et al., ": {"journal": "Unpublished", "n": 7, "title": "Evolutionary history of the endemic strains of Chinese Measles virus"}, "Kang et al., ": {"journal": "Unpublished", "n": 3, "title": "Complete genome sequences of measles virus genotype D8 isolates from South Korea in 2016"}, "Kirkness et al., ": {"journal": "Submitted (30-AUG-2011) J. Craig Venter Institute, 9704 Medical Center Drive, Rockville, MD 20850, USA", "n": 8, "title": "Direct Submission"}, "Lemon et al., ": {"journal": "PLoS Pathog. 7 (1), E1001263 (2011)", "n": 1, "title": "Early target cells of measles virus after aerosol infection of non-human primates"}, "Li et al., ": {"journal": "Unpublished", "n": 1, "title": "Analysis on complete genome sequence of measles viruses in Zhuhai outbreak during 2017"}, "Lu et al., ": {"journal": "Unpublished", "n": 3, "title": "Epidemiology and molecular evolution of divergent viral pathogens associated with respiratory tract infections across Vietnam"}, "Ma et al., ": {"journal": "Virol Sin 25 (6), 381-389 (2010)", "n": 1, "title": "Isolation and complete nucleotide sequence of the measles virus IMB-1 strain in China"}, "Marinelli et al., ": {"journal": "Submitted (06-APR-2018) Ao Ospedali Riuniti Di Ancona, Virologia, Via Conca, 71, Ancona 60020, Italy", "n": 1, "title": "Direct Submission"}, "Meneses et al., ": {"journal": "Mem. Inst. Oswaldo Cruz 114, e180545 (2019)", "n": 1, "title": "Molecular characterisation of the emerging measles virus from Roraima state, Brazil, 2018"}, "Mura et al., ": {"journal": "J. Virol. (2017) In press", "n": 1, "title": "Non-encapsidated 5' copy-back defective-interfering genomes produced by recombinant measles viruses are recognized by RIG-I and LGP2 but not MDA5"}, "Okada et al., ": {"journal": "J. Virol. 83 (17), 8713-8721 (2009)", "n": 2, "title": "Previously unrecognized amino acid substitutions in the hemagglutinin and fusion proteins of measles virus modulate cell-cell fusion, hemadsorption, virus growth, and penetration rate"}, "Oude Munnink et al., ": {"journal": "Genome Announc 4 (2) (2016)", "n": 2, "title": "Complete Genome Characterization of Two Wild-Type Measles Viruses from Vietnamese Infants during the 2014 Outbreak"}, "Pabbaraju et al., ": {"journal": "J. Neurovirol. (2018) In press", "n": 1, "title": "Genetic characterization of Subacute Sclerosing Panencephalitis measles virus strain from Calgary, Canada"}, "Penedos et al., ": {"journal": "PLoS ONE 10 (11), E0143081 (2015)", "n": 48, "title": "Assessment of the Utility of Whole Genome Sequencing of Measles Virus in the Characterisation of Outbreaks"}, "Phan et al., ": {"journal": "Unpublished", "n": 6, "title": "Complete genome sequences of six measles virus strains"}, "Scott et al., ": {"journal": "Submitted (20-APR-2017) Wisconsin State Laboratory of Hygiene, University of Wisconsin-Madison, 2601 Agriculture Dr., Madison, WI 53718, USA", "n": 1, "title": "Direct Submission"}, "Sparrer et al., ": {"journal": "Genome Announc 2 (2), e00157-14 (2014)", "n": 1, "title": "Complete Genome Sequence of a Wild-Type Measles Virus Isolated during the Spring 2013 Epidemic in Germany"}, "Zou et al., ": {"journal": "Unpublished", "n": 1, "title": "Unbiased metagenomic sequencing facilitated Measles virus identification in a 1-month infant with unexplained pneumonia"}}, "color_options": {"authors": {"key": "authors", "legendTitle": "Authors", "menuItem": "authors", "type": "discrete"}, "gt": {"key": "genotype", "legendTitle": "Genotype", "menuItem": "genotype", "type": "discrete"}, "num_date": {"key": "num_date", "legendTitle": "Sampling date", "menuItem": "date", "type": "continuous"}, "region": {"color_map": [["africa", "#CEB541"], ["europe", "#E39B39"], ["south_america", "#E56C2F"], ["north_america", "#DC2F24"], ["australia", "#4A8CC2"], ["asia", "#511EA8"]], "key": "region", "legendTitle": "region", "menuItem": "region"}, "subtype": {"key": "subtype", "legendTitle": "Subtype", "menuItem": "Subtype", "type": "discrete"}}, "defaults": {"mapTriplicate": true}, "filters": ["country", "region", "subtype", "authors"], "geo": {"country": {"australia": {"latitude": -24.7761085, "longitude": 134.755}, "brazil": {"latitude": -10.3333332, "longitude": -53.1999999}, "canada": {"latitude": 61.0666922, "longitude": -107.991707}, "china": {"latitude": 35.000074, "longitude": 104.999927}, "france": {"latitude": 46.603354, "longitude": 1.8883335}, "germany": {"latitude": 51.0834196, "longitude": 10.4234469}, "italy": {"latitude": 42.6384261, "longitude": 12.674297}, "japan": {"latitude": 35.68536, "longitude": 139.75309}, "netherlands": {"latitude": 52.3702, "longitude": 4.8952}, "south_korea": {"latitude": 35.3985008, "longitude": 127.937111}, "sudan": {"latitude": 16.0, "longitude": 30.0}, "united_kingdom": {"latitude": 54.542713, "longitude": -2.384858}, "usa": {"latitude": 39.7837304, "longitude": -100.4458824}, "vietnam": {"latitude": 16.16667, "longitude": 107.83333}}, "region": {"africa": {"latitude": 4.070194, "longitude": 21.824559}, "europe": {"latitude": 49.646237, "longitude": 10.799454}, "north_america": {"latitude": 28.2367447, "longitude": -97.738017}, "south_america": {"latitude": -13.083583, "longitude": -58.470721}}}, "maintainer": ["Trevor Bedford, Eduan Wilkinson, Richard Neher", "http://bedford.io/team/trevor-bedford/"], "panels": ["tree", "map", "entropy"], "title": "Real-time tracking of measles virus evolution", "updated": "10 Jul 2019", "virus_count": 104}