{"annotations": {"N": {"end": 450, "start": 0, "strand": 1}, "nuc": {"end": 450, "start": 0, "strand": 1}}, "author_info": {"Al Busaidy et al.,": {"journal": "Unpublished", "n": 54, "title": "MeaNS - Measles Nucleotide Surveillance Program"}, "Al Jardani et al.,": {"journal": "Unpublished", "n": 2, "title": "MeaNS - Measles Nucleotide Surveillance Program"}, "Al Kindi et al.,": {"journal": "Unpublished", "n": 50, "title": "MeaNS - Measles Nucleotide Surveillance Program"}, "Al-Jardani et al.,": {"journal": "Unpublished", "n": 1, "title": "MeaNS - Measles Nucleotide Surveillance Program"}, "Al-Mahruqi et al.,": {"journal": "Unpublished", "n": 34, "title": "MeaNS - Measles Nucleotide Surveillance Program"}, "Alam et al.,": {"journal": "Unpublished", "n": 2, "title": "MeaNS - Measles Nucleotide Surveillance Program"}, "Alamri et al.,": {"journal": "Unpublished", "n": 10, "title": "MeaNS - Measles Nucleotide Surveillance Program"}, "Albuaini et al.,": {"journal": "Unpublished", "n": 1, "title": "MeaNS - Measles Nucleotide Surveillance Program"}, "Aniscenko et al.,": {"journal": "Unpublished", "n": 6, "title": "MeaNS - Measles Nucleotide Surveillance Program"}, "Anton et al.,": {"journal": "Unpublished", "n": 24, "title": "MeaNS - Measles Nucleotide Surveillance Program"}, "Arguelles et al.,": {"journal": "Unpublished", "n": 2, "title": "MeaNS - Measles Nucleotide Surveillance Program"}, "Bancevic et al.,": {"journal": "Unpublished", "n": 1, "title": "MeaNS - Measles Nucleotide Surveillance Program"}, "Barratt et al.,": {"journal": "Unpublished", "n": 3, "title": "MeaNS - Measles Nucleotide Surveillance Program"}, "Bayrakdar et al.,": {"journal": "Unpublished", "n": 1, "title": "MeaNS - Measles Nucleotide Surveillance Program"}, "Beirnes et al.,": {"journal": "Unpublished", "n": 2, "title": "MeaNS - Measles Nucleotide Surveillance Program"}, "Bodewes et al.,": {"journal": "Unpublished", "n": 11, "title": "MeaNS - Measles Nucleotide Surveillance Program"}, "Bordi et al.,": {"journal": "Unpublished", "n": 2, "title": "Phylogenetic analysis of Measles virus 2014"}, "Brown et al.,": {"journal": "Unpublished", "n": 17, "title": "MeaNS - Measles Nucleotide Surveillance Program"}, "Carletti et al.,": {"journal": "Unpublished", "n": 3, "title": "Increasing in circulation of Measles virus: Cases at INMI in Rome"}, "Carr et al.,": {"journal": "Unpublished", "n": 3, "title": "MeaNS - Measles Nucleotide Surveillance Program"}, "Chem et al.,": {"journal": "Unpublished", "n": 44, "title": "MeaNS - Measles Nucleotide Surveillance Program"}, "Cheng et al.,": {"journal": "J. Med. Virol. 88 (5), 746-753 (2016)", "n": 12, "title": "Measles surveillance in Taiwan, 2012-2014: Changing epidemiology, immune response, and circulating genotypes"}, "Connell et al.,": {"journal": "Unpublished", "n": 1, "title": "MeaNS - Measles Nucleotide Surveillance Program"}, "Cruz et al.,": {"journal": "Unpublished", "n": 2, "title": "MeaNS - Measles Nucleotide Surveillance Program"}, "De Swart et al.,": {"journal": "Unpublished", "n": 2, "title": "MeaNS - Measles Nucleotide Surveillance Program"}, "Dembinski et al.,": {"journal": "Unpublished", "n": 3, "title": "MeaNS - Measles Nucleotide Surveillance Program"}, "Dhole et al.,": {"journal": "Unpublished", "n": 1, "title": "MeaNS - Measles Nucleotide Surveillance Program"}, "Dilcher et al.,": {"journal": "Unpublished", "n": 10, "title": "MeaNS - Measles Nucleotide Surveillance Program"}, "Dina et al.,": {"journal": "Unpublished", "n": 5, "title": "MeaNS - Measles Nucleotide Surveillance Program"}, "Ederth et al.,": {"journal": "Unpublished", "n": 4, "title": "MeaNS - Measles Nucleotide Surveillance Program"}, "Espinosa et al.,": {"journal": "Submitted (20-APR-2017) Viral and Rickettsial Disease Laboratory, California Department of Public Health, 850 Marina Bay Parkway, Richmond, CA 94804, USA", "n": 2, "title": "Direct Submission"}, "Faneye et al.,": {"journal": "Submitted (09-NOV-2018) Virology, University of Ibadan, College of Medicine (UCH), Ibadan, Oyo +234, Nigeria", "n": 10, "title": "Direct Submission"}, "Farkas et al.,": {"journal": "Unpublished", "n": 8, "title": "MeaNS - Measles Nucleotide Surveillance Program"}, "Foronda et al.,": {"journal": "Unpublished", "n": 1, "title": "MeaNS - Measles Nucleotide Surveillance Program"}, "Franchin et al.,": {"journal": "Unpublished", "n": 8, "title": "Measles virus in Veneto region, Italy"}, "Freymuth et al.,": {"journal": "Unpublished", "n": 4, "title": "Measles strains National Reference Center (Caen-France)"}, "Gokuden et al.,": {"journal": "Unpublished", "n": 4, "title": "Nucleotide sequence of measles virus N gene (partial cds)"}, "Gu et al.,": {"journal": "Unpublished", "n": 2, "title": "Epidemiological characteristics and genotype distribution of Measles cases in Ningbo from 2004 to 2014"}, "Hamano et al.,": {"journal": "Unpublished", "n": 7, "title": "Measles virus N gene for nucleoprotein, partial cds"}, "Hardie et al.,": {"journal": "Unpublished", "n": 10, "title": "Defining the early evolution of measles virus in the brain: genetic analysis of measles inclusion body encephalitis (MIBE) and subacute sclerosing panencephalitis (SSPE) viruses from the 2009/10 South African measles epidemic"}, "Hayashi et al.,": {"journal": "Unpublished", "n": 1, "title": "measles virus detected in Amagasaki city in Hyogo"}, "Hiebert et al.,": {"journal": "Unpublished", "n": 10, "title": "MeaNS - Measles Nucleotide Surveillance Program"}, "Hiragakiuchi et al.,": {"journal": "Unpublished", "n": 1, "title": "Detection of measles virus in Amagasaki city, Japan"}, "Hutse et al.,": {"journal": "Unpublished", "n": 93, "title": "MeaNS - Measles Nucleotide Surveillance Program"}, "Ikegaya et al.,": {"journal": "Unpublished", "n": 1, "title": "Detection of measles virus in Shizuoka, Japan"}, "Indenbaum et al.,": {"journal": "Unpublished", "n": 27, "title": "MeaNS - Measles Nucleotide Surveillance Program"}, "Irshad et al.,": {"journal": "Submitted (11-FEB-2016) Microbiology, Institute of Basic Medical Sciences, Khyber Medical University, near PDA building, Hayatabad, Peshawar, Khyber Pakhtunkhwa 25000, Pakistan", "n": 9, "title": "Direct Submission"}, "Ishikawa et al.,": {"journal": "Unpublished", "n": 1, "title": "Measles virus genotype B3"}, "Jamil et al.,": {"journal": "Unpublished", "n": 13, "title": "MeaNS - Measles Nucleotide Surveillance Program"}, "Janagi et al.,": {"journal": "Unpublished", "n": 3, "title": "MeaNS - Measles Nucleotide Surveillance Program"}, "Kadjo et al.,": {"journal": "Unpublished", "n": 2, "title": "MeaNS - Measles Nucleotide Surveillance Program"}, "Kaida et al.,": {"journal": "Unpublished", "n": 9, "title": "Detection of measles virus genotype B3 in Osaka City, Japan"}, "Kajiyama et al.,": {"journal": "Unpublished", "n": 3, "title": "Sequence analysis of measles virus in Fukuoka city"}, "Kalaycioglu et al.,": {"journal": "Unpublished", "n": 6, "title": "MeaNS - Measles Nucleotide Surveillance Program"}, "Kanbayashi et al.,": {"journal": "Unpublished", "n": 1, "title": "Detection of measles virus in Osaka, Japan"}, "Kasuga et al.,": {"journal": "Unpublished", "n": 3, "title": "Detection of measles virus in Tokyo, Japan"}, "Katarina Prosenc et al.,": {"journal": "Unpublished", "n": 1, "title": "MeaNS - Measles Nucleotide Surveillance Program"}, "Kirkness et al.,": {"journal": "Submitted (30-AUG-2011) J. Craig Venter Institute, 9704 Medical Center Drive, Rockville, MD 20850, USA", "n": 1, "title": "Direct Submission"}, "Kobayashi et al.,": {"journal": "Unpublished", "n": 2, "title": "Measles"}, "Kolupajeva et al.,": {"journal": "Unpublished", "n": 4, "title": "MeaNS - Measles Nucleotide Surveillance Program"}, "Korukluoglu et al.,": {"journal": "Unpublished", "n": 2, "title": "MeaNS - Measles Nucleotide Surveillance Program"}, "Kremer et al.,": {"journal": "Emerging Infect. Dis. 16 (11), 1724-1730 (2010)", "n": 42, "title": "Measles virus strain diversity, Nigeria and Democratic Republic of the Congo"}, "Kurata et al.,": {"journal": "Unpublished", "n": 14, "title": "Measels viruses detected in Osaka prefecture"}, "Kusuhara et al.,": {"journal": "Unpublished", "n": 1, "title": "Measles virus N gene sequence in 2016"}, "Kuttiatt et al.,": {"journal": "Unpublished", "n": 66, "title": "Molecular characterization of Measles virus strains circulating in Kerala"}, "Kuzuguchi et al.,": {"journal": "Unpublished", "n": 2, "title": "Detection of measles virus in Gifu, Japan"}, "Lalle et al.,": {"journal": "Unpublished", "n": 3, "title": "Increasing in circulation of Measles virus: Cases at INMI in Rome"}, "Lazar et al.,": {"journal": "Unpublished", "n": 15, "title": "MeaNS - Measles Nucleotide Surveillance Program"}, "Lekana-Douki et al.,": {"journal": "Unpublished", "n": 20, "title": "Epidemiology and molecular characterization of the re-emerging measles virus among children and adults in the Haut-Ogooue, Gabon"}, "Lemon et al.,": {"journal": "PLoS Pathog. 7 (1), E1001263 (2011)", "n": 1, "title": "Early target cells of measles virus after aerosol infection of non-human primates"}, "Lyon et al.,": {"journal": "Unpublished", "n": 2, "title": "MeaNS - Measles Nucleotide Surveillance Program"}, "Magurano et al.,": {"journal": "Unpublished", "n": 79, "title": "MeaNS - Measles Nucleotide Surveillance Program"}, "Marosevic et al.,": {"journal": "Unpublished", "n": 1, "title": "MeaNS - Measles Nucleotide Surveillance Program"}, "Matsushima et al.,": {"journal": "Unpublished", "n": 4, "title": "Genetic analysis of measles virus detected in Kawasaki City, Japan 2013-2014"}, "Mendoza et al.,": {"journal": "Unpublished", "n": 1, "title": "Measles genotype surveillance in Canada"}, "Miyoshi et al.,": {"journal": "Unpublished", "n": 8, "title": "Epidemiology and laboratory diagnoses of measles in Hokkaido district, Japan, in 2013 and 2014"}, "Mochizuki et al.,": {"journal": "Unpublished", "n": 2, "title": "Sequence analaysis of measles virus in Sagamihara City"}, "Mohd Asri et al.,": {"journal": "Unpublished", "n": 2, "title": "MeaNS - Measles Nucleotide Surveillance Program"}, "Mokhtari Azad et al.,": {"journal": "Unpublished", "n": 431, "title": "Measles Nucleotide Surveillance Program"}, "Mokhtari-Azad et al.,": {"journal": "Unpublished", "n": 7, "title": "Molecular epidemiology of Measles virus in Iran"}, "Mori et al.,": {"journal": "Unpublished", "n": 3, "title": "Prevalence of Measles virus in Tokyo,Japan"}, "Mosquera et al.,": {"journal": "Unpublished", "n": 9, "title": "MeaNS - Measles Nucleotide Surveillance Program"}, "Munoz-Alia et al.,": {"journal": "Virus Res. 196C, 122-127 (2014)", "n": 1, "title": "Measles virus genetic evolution throughout an imported epidemic outbreak in a highly vaccinated population"}, "Muscat et al.,": {"journal": "Vaccine 25 (33), 6232-6236 (2007)", "n": 3, "title": "The benefit of molecular characterization during a measles upsurge in Denmark"}, "Nagasao et al.,": {"journal": "Unpublished", "n": 1, "title": "Detection of measles virus in Kyoto city, Japan"}, "Necula et al.,": {"journal": "Unpublished", "n": 1, "title": "MeaNS - Measles Nucleotide Surveillance Program"}, "Noguchi et al.,": {"journal": "Unpublished", "n": 1, "title": "Detection of measles virus in Fukuoka city, Japan"}, "Northill et al.,": {"journal": "Unpublished", "n": 37, "title": "MeaNS - Measles Nucleotide Surveillance Program"}, "Ohinishi et al.,": {"journal": "Unpublished", "n": 3, "title": "Measles virus N gene for nucleoprotein,partial cds"}, "Pagonendji et al.,": {"journal": "Unpublished", "n": 20, "title": "Molecular epidemiology of Measles virus circulating in Central African Republic"}, "Palminha et al.,": {"journal": "Unpublished", "n": 1, "title": "MeaNS - Measles Nucleotide Surveillance Program"}, "Penedos et al.,": {"journal": "PLoS ONE 10 (11), E0143081 (2015)", "n": 11, "title": "Assessment of the Utility of Whole Genome Sequencing of Measles Virus in the Characterisation of Outbreaks"}, "Phan et al.,": {"journal": "Unpublished", "n": 1, "title": "Complete genome sequences of six measles virus strains"}, "Pogka et al.,": {"journal": "Unpublished", "n": 35, "title": "Ongoing measles outbreak in Greece"}, "Prosenc et al.,": {"journal": "Unpublished", "n": 11, "title": "MeaNS - Measles Nucleotide Surveillance Program"}, "Pukuta et al.,": {"journal": "Unpublished", "n": 164, "title": "MeaNS - Measles Nucleotide Surveillance Program"}, "Raut et al.,": {"journal": "Unpublished", "n": 1, "title": "MeaNS - Measles Nucleotide Surveillance Program"}, "Rivailler et al.,": {"journal": "Unpublished", "n": 65, "title": "MeaNS - Measles Nucleotide Surveillance Program"}, "Rota et al.,": {"journal": "Unpublished", "n": 377, "title": "MeaNS - Measles Nucleotide Surveillance Program"}, "Saikusa et al.,": {"journal": "Unpublished", "n": 8, "title": "Sequence analysis of measles virus in Yokohama City"}, "Salimovic-Besic et al.,": {"journal": "Unpublished", "n": 23, "title": "MeaNS - Measles Nucleotide Surveillance Program"}, "Santibanez et al.,": {"journal": "Unpublished", "n": 65, "title": "MeaNS - Measles Nucleotide Surveillance Program"}, "Santon et al.,": {"journal": "Unpublished", "n": 5, "title": "Measles surveillance in Friuli-Venezia Giulia Region (North Eastern Italy) 2005-2015"}, "Shimizu et al.,": {"journal": "Unpublished", "n": 1, "title": "Detection of measles virus in Kawasaki city, Japan"}, "Shonhai et al.,": {"journal": "Unpublished", "n": 30, "title": "Investigation of a Measles outbreak in Zimbabwe in 2010: Potential of a point of care test to replace laboratory confirmation of suspected cases"}, "Shulga et al.,": {"journal": "Unpublished", "n": 1, "title": "Genotypes of measles virus in Russia, 2008 - 2009"}, "Siqueira et al.,": {"journal": "Unpublished", "n": 13, "title": "Genetic characterization of Measles Virus detected in 2010 in Brazil"}, "Smit et al.,": {"journal": "Unpublished", "n": 367, "title": "MeaNS - Measles Nucleotide Surveillance Program"}, "Suzuki et al.,": {"journal": "Unpublished", "n": 4, "title": "Detection of measles virus in Kanagawa, Japan"}, "Tallo et al.,": {"journal": "Unpublished", "n": 25, "title": "MeaNS - Measles Nucleotide Surveillance Program"}, "Tanaka et al.,": {"journal": "Unpublished", "n": 1, "title": "Detection of measles virus in Gifu city, Japan"}, "Tavera et al.,": {"journal": "Unpublished", "n": 1, "title": "MeaNS - Measles Nucleotide Surveillance Program"}, "Tian et al.,": {"journal": "Unpublished", "n": 3, "title": "MeaNS - Measles Nucleotide Surveillance Program"}, "Tramuto et al.,": {"journal": "Unpublished", "n": 17, "title": "Measles epidemiology in Sicily"}, "Tran et al.,": {"journal": "Unpublished", "n": 188, "title": "MeaNS - Measles Nucleotide Surveillance Program"}, "Tricou et al.,": {"journal": "BMC Infect. Dis. 13, 103 (2013)", "n": 5, "title": "Measles outbreak in Northern Central African Republic 3 years after the last national immunization campaign"}, "Tsukagoshi et al.,": {"journal": "Unpublished", "n": 1, "title": "Detection of measles virus in Gunma, Japan"}, "Umair et al.,": {"journal": "Submitted (13-NOV-2017) Department of Virology, National Institute of Health, Park Road, Chak Shahzad, Islamabad, Islamabad 44000, Pakistan", "n": 27, "title": "Direct Submission"}, "Umezawa et al.,": {"journal": "Unpublished", "n": 2, "title": "Measles virus genotype B3"}, "Vainio et al.,": {"journal": "Unpublished", "n": 21, "title": "MeaNS - Measles Nucleotide Surveillance Program"}, "Van Binnendijk et al.,": {"journal": "Unpublished", "n": 17, "title": "MeaNS - Measles Nucleotide Surveillance Program"}, "Waku-Kouomou et al.,": {"journal": "J. Med. Virol. 82 (6), 1033-1043 (2010)", "n": 1, "title": "Co-circulation of multiple measles virus genotypes during an epidemic in France in 2008"}, "Weber et al.,": {"journal": "Unpublished", "n": 1, "title": "MeaNS - Measles Nucleotide Surveillance Program"}, "Wiman et al.,": {"journal": "Unpublished", "n": 43, "title": "MeaNS - Measles Nucleotide Surveillance Program"}, "Woo et al.,": {"journal": "Unpublished", "n": 28, "title": "Nucleoprotein gene sequence of Measles virus detected in Hong Kong in 2019"}, "Yamin et al.,": {"journal": "Unpublished", "n": 1, "title": "MeaNS - Measles Nucleotide Surveillance Program"}, "Yasui et al.,": {"journal": "Unpublished", "n": 39, "title": "Measles N gene sequence in 2018"}, "Yu Kie et al.,": {"journal": "Unpublished", "n": 11, "title": "MeaNS - Measles Nucleotide Surveillance Program"}, "Zaidi et al.,": {"journal": "Submitted (21-SEP-2017) Department of Virology, National Institute of Health, Park Road, Chak Shahzad, Islamabad, Islamabad 44000, Pakistan", "n": 181, "title": "Direct Submission"}, "Zakikhany et al.,": {"journal": "Unpublished", "n": 13, "title": "MeaNS - Measles Nucleotide Surveillance Program"}, "Zeng et al.,": {"journal": "Unpublished", "n": 2, "title": "12 acute measles encephalitis cases without rash"}, "de Swart et al.,": {"journal": "Unpublished", "n": 3, "title": "MeaNS - Measles Nucleotide Surveillance Program"}}, "color_options": {"authors": {"key": "authors", "legendTitle": "Authors", "menuItem": "authors", "type": "discrete"}, "gt": {"key": "genotype", "legendTitle": "Genotype", "menuItem": "genotype", "type": "discrete"}, "num_date": {"key": "num_date", "legendTitle": "Sampling date", "menuItem": "date", "type": "continuous"}, "region": {"color_map": [["africa", "#CEB541"], ["europe", "#E39B39"], ["south_america", "#E56C2F"], ["north_america", "#DC2F24"], ["australia", "#4A8CC2"], ["asia", "#511EA8"]], "key": "region", "legendTitle": "region", "menuItem": "region"}, "subtype": {"key": "subtype", "legendTitle": "Subtype", "menuItem": "Subtype", "type": "discrete"}}, "defaults": {"mapTriplicate": true}, "filters": ["country", "region", "subtype", "authors"], "geo": {"country": {"afghanistan": {"latitude": 33.0, "longitude": 66.0}, "albania": {"latitude": 41.0, "longitude": 20.0}, "angola": {"latitude": -11.8775767, "longitude": 17.5691241}, "australia": {"latitude": -24.7761085, "longitude": 134.755}, "bahrain": {"latitude": 26.22787, "longitude": 50.58565}, "bangladesh": {"latitude": 24.4768783, "longitude": 90.2932426}, "belgium": {"latitude": 50.6407351, "longitude": 4.66696}, "benin": {"latitude": 9.668764, "longitude": 2.284078}, "botswana": {"latitude": -22.199114, "longitude": 24.017975}, "brazil": {"latitude": -10.3333332, "longitude": -53.1999999}, "cameroon": {"latitude": 6.0, "longitude": 12.5}, "canada": {"latitude": 61.0666922, "longitude": -107.991707}, "central_african_republic": {"latitude": 7.0, "longitude": 21.0}, "china": {"latitude": 35.000074, "longitude": 104.999927}, "colombia": {"latitude": 2.893108, "longitude": -73.7845142}, "czech_republic": {"latitude": 49.8175, "longitude": 15.473}, "denmark": {"latitude": 56.0, "longitude": 10.0}, "ecuador": {"latitude": -1.3397667, "longitude": -79.3666964}, "france": {"latitude": 46.603354, "longitude": 1.8883335}, "gabon": {"latitude": -0.8999694, "longitude": 11.6899699}, "germany": {"latitude": 51.0834196, "longitude": 10.4234469}, "ghana": {"latitude": 8.0300284, "longitude": -1.080027}, "greece": {"latitude": 39.0, "longitude": 22.0}, "guatemala": {"latitude": 15.6356088, "longitude": -89.8988086}, "hong_kong": {"latitude": 22.3964, "longitude": 114.1095}, "hungary": {"latitude": 47.0, "longitude": 20.0}, "india": {"latitude": 22.3511148, "longitude": 78.6677428}, "iran": {"latitude": 32.0, "longitude": 53.0}, "ireland": {"latitude": 52.865196, "longitude": -7.9794598}, "israel": {"latitude": 31.5, "longitude": 34.75}, "italy": {"latitude": 42.6384261, "longitude": 12.674297}, "japan": {"latitude": 35.68536, "longitude": 139.75309}, "kenya": {"latitude": 1.0, "longitude": 38.0}, "latvia": {"latitude": 57.0, "longitude": 25.0}, "lebanon": {"latitude": 33.88894, "longitude": 35.49442}, "liberia": {"latitude": 5.7499721, "longitude": -9.3658523}, "malawi": {"latitude": -13.550995, "longitude": 34.124594}, "malaysia": {"latitude": 2.3923759, "longitude": 112.8471939}, "mali": {"latitude": 18.0, "longitude": -2.0}, "mauritania": {"latitude": 20.25, "longitude": -10.5}, "mexico": {"latitude": 19.4325301, "longitude": -99.1332101}, "mozambique": {"latitude": -18.25, "longitude": 35.0}, "netherlands": {"latitude": 52.3702, "longitude": 4.8952}, "new_zealand": {"latitude": -41.500083, "longitude": 172.8344077}, "niger": {"latitude": 18.0, "longitude": 9.0}, "nigeria": {"latitude": 10.0, "longitude": 8.0}, "norway": {"latitude": 64.574131, "longitude": 11.5270102892}, "oman": {"latitude": 21.0000287, "longitude": 57.0036901}, "pakistan": {"latitude": 30.0, "longitude": 70.0}, "papua_new_guinea": {"latitude": -6.0, "longitude": 147.0}, "philippines": {"latitude": 12.8797, "longitude": 121.774}, "portugal": {"latitude": 39.6945, "longitude": -8.13057}, "qatar": {"latitude": 25.27932, "longitude": 51.52245}, "romania": {"latitude": 46.0, "longitude": 25.0}, "russia": {"latitude": 64.6863136, "longitude": 97.7453061}, "rwanda": {"latitude": -2.0, "longitude": 30.0}, "senegal": {"latitude": 14.5, "longitude": -14.25}, "serbia": {"latitude": 44.1534121, "longitude": 20.55144}, "sierra_leone": {"latitude": 8.5, "longitude": -11.5}, "slovenia": {"latitude": 45.8133113, "longitude": 14.4808369}, "solomon_islands": {"latitude": -8.0, "longitude": 159.0}, "somalia": {"latitude": 8.3676771, "longitude": 49.083416}, "south_africa": {"latitude": -28.8166235, "longitude": 24.991639}, "spain": {"latitude": 40.0028028, "longitude": -4.0031039}, "sudan": {"latitude": 16.0, "longitude": 30.0}, "sweden": {"latitude": 59.6749712, "longitude": 14.5208584}, "switzerland": {"latitude": 47.00016, "longitude": 8.01427}, "taiwan": {"latitude": 23.6978, "longitude": 120.9605}, "togo": {"latitude": 8.66667, "longitude": 1.08333}, "turkey": {"latitude": 39.0, "longitude": 35.0}, "uganda": {"latitude": 1.5333554, "longitude": 32.2166578}, "united_arab_emirates": {"latitude": 24.0002488, "longitude": 53.9994829}, "united_kingdom": {"latitude": 54.542713, "longitude": -2.384858}, "usa": {"latitude": 39.7837304, "longitude": -100.4458824}, "zambia": {"latitude": -14.33333, "longitude": 28.5}, "zimbabwe": {"latitude": -19.307486, "longitude": 29.7968377}}, "region": {"africa": {"latitude": 4.070194, "longitude": 21.824559}, "europe": {"latitude": 49.646237, "longitude": 10.799454}, "north_america": {"latitude": 28.2367447, "longitude": -97.738017}, "south_america": {"latitude": -13.083583, "longitude": -58.470721}}}, "maintainer": ["Trevor Bedford, Eduan Wilkinson, Richard Neher", "http://bedford.io/team/trevor-bedford/"], "panels": ["tree", "map", "entropy"], "title": "Real-time tracking of measles virus evolution", "updated": "10 Jul 2019", "virus_count": 2601}