{"annotations": {"N": {"end": 450, "start": 0, "strand": 1}, "nuc": {"end": 450, "start": 0, "strand": 1}}, "author_info": {"Abe et al.,": {"journal": "Unpublished", "n": 1, "title": "Measles virus"}, "Adhikari et al.,": {"journal": "Unpublished", "n": 1, "title": "MeaNS - Measles Nucleotide Surveillance Program"}, "Akachi et al.,": {"journal": "Unpublished", "n": 2, "title": "Measles N gene seqence in 2010"}, "Al Busaidy et al.,": {"journal": "Unpublished", "n": 4, "title": "MeaNS - Measles Nucleotide Surveillance Program"}, "Al Jardani et al.,": {"journal": "Unpublished", "n": 3, "title": "MeaNS - Measles Nucleotide Surveillance Program"}, "Al-Jardani et al.,": {"journal": "Unpublished", "n": 3, "title": "MeaNS - Measles Nucleotide Surveillance Program"}, "Ashizuka et al.,": {"journal": "Unpublished", "n": 1, "title": "Measles Virus nucleoprotein"}, "Baykal et al.,": {"journal": "Unpublished", "n": 4, "title": "MeaNS - Measles Nucleotide Surveillance Program"}, "Beirnes et al.,": {"journal": "Unpublished", "n": 3, "title": "MeaNS - Measles Nucleotide Surveillance Program"}, "Brown et al.,": {"journal": "Unpublished", "n": 8, "title": "MeaNS - Measles Nucleotide Surveillance Program"}, "Centeno et al.,": {"journal": "Unpublished", "n": 23, "title": "Genetic Analysis of Measles Virus in the Philippines"}, "Chem et al.,": {"journal": "Unpublished", "n": 128, "title": "MeaNS - Measles Nucleotide Surveillance Program"}, "Chen et al.,": {"journal": "Emerging Infect. Dis. 21 (3), 477-479 (2015)", "n": 2, "title": "Endemic and Imported Measles Virus-Associated Outbreaks among Adults, Beijing, China, 2013"}, "Cheng et al.,": {"journal": "J. Med. Virol. 88 (5), 746-753 (2016)", "n": 39, "title": "Measles surveillance in Taiwan, 2012-2014: Changing epidemiology, immune response, and circulating genotypes"}, "Cruz-Ramirez et al.,": {"journal": "Unpublished", "n": 2, "title": "Identification of D9 measles virus in Mexico 2015"}, "De Swart et al.,": {"journal": "Unpublished", "n": 1, "title": "Measles surveillance in The Netherlands"}, "Dina et al.,": {"journal": "Unpublished", "n": 3, "title": "MeaNS - Measles Nucleotide Surveillance Program"}, "Ellan et al.,": {"journal": "Unpublished", "n": 7, "title": "MeaNS - Measles Nucleotide Surveillance Program"}, "Enomoto et al.,": {"journal": "Unpublished", "n": 1, "title": "Sequence analysis of measles virus in Hyogo"}, "Espinosa et al.,": {"journal": "Submitted (20-APR-2017) Viral and Rickettsial Disease Laboratory, California Department of Public Health, 850 Marina Bay Parkway, Richmond, CA 94804, USA", "n": 1, "title": "Direct Submission"}, "Freymuth et al.,": {"journal": "Unpublished", "n": 3, "title": "Measles strains National Reference Center (Caen-France)"}, "Hasegawa et al.,": {"journal": "Ann. Rep. Tokyo Metr. Inst. Pub. Health 62, 71-78 (2011)", "n": 21, "title": "Measles Epidemic in Tokyo(2011)"}, "Hibino et al.,": {"journal": "Unpublished", "n": 1, "title": "Measles virus nucleoprotein(N)"}, "Hiebert et al.,": {"journal": "Unpublished", "n": 5, "title": "MeaNS - Measles Nucleotide Surveillance Program"}, "Hiragakiuchi et al.,": {"journal": "Unpublished", "n": 1, "title": "Detection of measles virus in Amagasaki city, Japan"}, "Huebschen et al.,": {"journal": "Unpublished", "n": 1, "title": "MeaNS - Measles Nucleotide Surveillance Program"}, "Indenbaum et al.,": {"journal": "Unpublished", "n": 3, "title": "MeaNS - Measles Nucleotide Surveillance Program"}, "Jayamaha et al.,": {"journal": "J. Clin. Virol. 54 (2), 168-173 (2012)", "n": 11, "title": "Laboratory diagnosis, molecular characteristics, epidemiological and clinical features of an outbreak of measles in a low incidence population in Australia"}, "Kajiyama et al.,": {"journal": "Unpublished", "n": 2, "title": "Sequence analysis of measles virus in Fukuoka city"}, "Kalaycioglu et al.,": {"journal": "Unpublished", "n": 18, "title": "MeaNS - Measles Nucleotide Surveillance Program"}, "Kavithambigai et al.,": {"journal": "Unpublished", "n": 9, "title": "MeaNS - Measles Nucleotide Surveillance Program"}, "Kawanishi et al.,": {"journal": "Unpublished", "n": 1, "title": "Measles virus detected in Himeji City"}, "Kim et al.,": {"journal": "Unpublished", "n": 1, "title": "Molecular characterize of Measles and Mumps in Korea"}, "Korukluoglu et al.,": {"journal": "Unpublished", "n": 2, "title": "MeaNS - Measles Nucleotide Surveillance Program"}, "Kurata et al.,": {"journal": "Unpublished", "n": 1, "title": "measles virus detected in Osaka"}, "Kusuhara et al.,": {"journal": "Unpublished", "n": 1, "title": "Measles virus N gene sequence in 2013"}, "Lyon et al.,": {"journal": "Unpublished", "n": 1, "title": "MeaNS - Measles Nucleotide Surveillance Program"}, "Magurano et al.,": {"journal": "Unpublished", "n": 1, "title": "Molecular epidemiology of Measles virus in Italy during 2010"}, "Matsufuji et al.,": {"journal": "Unpublished", "n": 1, "title": "Sequence analysis of measles virus in Fukuoka city"}, "Matsushima et al.,": {"journal": "Unpublished", "n": 4, "title": "Genetic analysis of measles virus detected in Kawasaki City, Japan 2013-2014"}, "Mitsuhashi et al.,": {"journal": "Unpublished", "n": 1, "title": "Measles N gene sequence in 2012"}, "Mohd Asri et al.,": {"journal": "Unpublished", "n": 5, "title": "MeaNS - Measles Nucleotide Surveillance Program"}, "Mosquera et al.,": {"journal": "Unpublished", "n": 1, "title": "MeaNS - Measles Nucleotide Surveillance Program"}, "Muscat et al.,": {"journal": "Vaccine 25 (33), 6232-6236 (2007)", "n": 1, "title": "The benefit of molecular characterization during a measles upsurge in Denmark"}, "Northill et al.,": {"journal": "Unpublished", "n": 13, "title": "MeaNS - Measles Nucleotide Surveillance Program"}, "Ogawa et al.,": {"journal": "Unpublished", "n": 1, "title": "Measles virus genotype D9 gene for nucleoprotein, partial cds,strain:Mvs/Chiba.JPN/08.12"}, "Pattamadilok et al.,": {"journal": "Unpublished", "n": 16, "title": "MeaNS - Measles Nucleotide Surveillance Program"}, "Rivailler et al.,": {"journal": "Unpublished", "n": 8, "title": "MeaNS - Measles Nucleotide Surveillance Program"}, "Rota et al.,": {"journal": "Unpublished", "n": 64, "title": "MeaNS - Measles Nucleotide Surveillance Program"}, "Saikusa et al.,": {"journal": "Unpublished", "n": 1, "title": "Sequence analysis of measles virus in Yokohama City"}, "Sakata et al.,": {"journal": "Unpublished", "n": 1, "title": "Anual Report of Kitakyushu City Institute of Environmental Sciences"}, "Santibanez et al.,": {"journal": "Unpublished", "n": 3, "title": "MeaNS - Measles Nucleotide Surveillance Program"}, "Shigemoto et al.,": {"journal": "Unpublished", "n": 4, "title": "Measles virus"}, "Shulga et al.,": {"journal": "Unpublished", "n": 12, "title": "Genotypes of measles virus in Russia and some NIS countries, 2007 - 2009"}, "Suzuki et al.,": {"journal": "Unpublished", "n": 1, "title": "Sequence of measles virus detected in Saitama, Japan"}, "Tian et al.,": {"journal": "Unpublished", "n": 6, "title": "MeaNS - Measles Nucleotide Surveillance Program"}, "Tran et al.,": {"journal": "Unpublished", "n": 49, "title": "MeaNS - Measles Nucleotide Surveillance Program"}, "Vainio et al.,": {"journal": "Unpublished", "n": 2, "title": "MeaNS - Measles Nucleotide Surveillance Program"}, "Van Binnendijk et al.,": {"journal": "Unpublished", "n": 2, "title": "MeaNS - Measles Nucleotide Surveillance Program"}, "Waku-Kouomou et al.,": {"journal": "J. Med. Virol. 82 (6), 1033-1043 (2010)", "n": 4, "title": "Co-circulation of multiple measles virus genotypes during an epidemic in France in 2008"}, "Weber et al.,": {"journal": "Unpublished", "n": 1, "title": "MeaNS - Measles Nucleotide Surveillance Program"}, "Wiman et al.,": {"journal": "Unpublished", "n": 4, "title": "MeaNS - Measles Nucleotide Surveillance Program"}, "Winn et al.,": {"journal": "Unpublished", "n": 27, "title": "Displacement of measles virus genotype D5 by genotype D9 in Myanmar"}, "Woo et al.,": {"journal": "Unpublished", "n": 12, "title": "Nucleoprotein gene sequence of Measles virus detected in Hong Kong in 2014"}, "Xu et al.,": {"journal": "Unpublished", "n": 6, "title": "The first measles outbreak caused by imported Measles Virus genotype D9 in Shandong province, China, 2013"}, "Yamin et al.,": {"journal": "Unpublished", "n": 1, "title": "MeaNS - Measles Nucleotide Surveillance Program"}, "Yasui et al.,": {"journal": "Unpublished", "n": 20, "title": "Measles N gene sequence in 2013"}, "Yokoi et al.,": {"journal": "Unpublished", "n": 1, "title": "Sequence analysis of measles virus in Chiba City"}, "Yu Kie et al.,": {"journal": "Unpublished", "n": 35, "title": "MeaNS - Measles Nucleotide Surveillance Program"}, "Zhang et al.,": {"journal": "Clin. Microbiol. Infect. (2014) In press", "n": 2, "title": "Monitoring progress toward measles elimination by genetic diversity analysis of measles viruses in China 2009-2010"}}, "color_options": {"authors": {"key": "authors", "legendTitle": "Authors", "menuItem": "authors", "type": "discrete"}, "gt": {"key": "genotype", "legendTitle": "Genotype", "menuItem": "genotype", "type": "discrete"}, "num_date": {"key": "num_date", "legendTitle": "Sampling date", "menuItem": "date", "type": "continuous"}, "region": {"color_map": [["europe", "#E39B39"], ["north_america", "#DC2F24"], ["australia", "#4A8CC2"], ["asia", "#511EA8"]], "key": "region", "legendTitle": "region", "menuItem": "region"}, "subtype": {"key": "subtype", "legendTitle": "Subtype", "menuItem": "Subtype", "type": "discrete"}}, "defaults": {"mapTriplicate": true}, "filters": ["country", "region", "subtype", "authors"], "geo": {"country": {"australia": {"latitude": -24.7761085, "longitude": 134.755}, "bahrain": {"latitude": 26.22787, "longitude": 50.58565}, "canada": {"latitude": 61.0666922, "longitude": -107.991707}, "china": {"latitude": 35.000074, "longitude": 104.999927}, "denmark": {"latitude": 56.0, "longitude": 10.0}, "france": {"latitude": 46.603354, "longitude": 1.8883335}, "germany": {"latitude": 51.0834196, "longitude": 10.4234469}, "hong_kong": {"latitude": 22.3964, "longitude": 114.1095}, "israel": {"latitude": 31.5, "longitude": 34.75}, "italy": {"latitude": 42.6384261, "longitude": 12.674297}, "japan": {"latitude": 35.68536, "longitude": 139.75309}, "malaysia": {"latitude": 2.3923759, "longitude": 112.8471939}, "mexico": {"latitude": 19.4325301, "longitude": -99.1332101}, "myanmar": {"latitude": 21.0, "longitude": 96.0}, "nepal": {"latitude": 28.0, "longitude": 84.0}, "netherlands": {"latitude": 52.3702, "longitude": 4.8952}, "norway": {"latitude": 64.574131, "longitude": 11.5270102892}, "oman": {"latitude": 21.0000287, "longitude": 57.0036901}, "philippines": {"latitude": 12.8797, "longitude": 121.774}, "russia": {"latitude": 64.6863136, "longitude": 97.7453061}, "serbia": {"latitude": 44.1534121, "longitude": 20.55144}, "south_korea": {"latitude": 35.3985008, "longitude": 127.937111}, "spain": {"latitude": 40.0028028, "longitude": -4.0031039}, "sweden": {"latitude": 59.6749712, "longitude": 14.5208584}, "taiwan": {"latitude": 23.6978, "longitude": 120.9605}, "thailand": {"latitude": 14.8971921, "longitude": 100.83273}, "turkey": {"latitude": 39.0, "longitude": 35.0}, "united_kingdom": {"latitude": 54.542713, "longitude": -2.384858}, "usa": {"latitude": 39.7837304, "longitude": -100.4458824}}, "region": {"europe": {"latitude": 49.646237, "longitude": 10.799454}, "north_america": {"latitude": 28.2367447, "longitude": -97.738017}}}, "maintainer": ["Trevor Bedford, Eduan Wilkinson, Richard Neher", "http://bedford.io/team/trevor-bedford/"], "panels": ["tree", "map", "entropy"], "title": "Real-time tracking of measles virus evolution", "updated": "10 Jul 2019", "virus_count": 588}